{
  "type": "FeatureCollection",
  "features": [
    {
      "geometry": {
        "type": "Point",
        "coordinates": [
          -3.8294623,
          53.323287
        ]
      },
      "type": "Feature",
      "properties": {
        "category": "DSP",
        "companycode": "443",
        "address": "Llandudno LL30 2NG, UK",
        "storecode": " ",
        "region": "DI"
      }
    },
    {
      "geometry": {
        "type": "Point",
        "coordinates": [
          -2.6469155,
          53.7203937
        ]
      },
      "type": "Feature",
      "properties": {
        "category": "SERVICE CENTRE",
        "companycode": " ",
        "address": "Dodd Way, Walton Summit, Preston, PR5 8AE",
        "storecode": " ",
        "region": "DS"
      }
    },
    {
      "geometry": {
        "type": "Point",
        "coordinates": [
          -4.4542853,
          50.3558853
        ]
      },
      "type": "Feature",
      "properties": {
        "category": "DSP",
        "companycode": "2088",
        "address": "EAST LOOE ,PL131DS",
        "storecode": "2001252",
        "region": "DS"
      }
    },
    {
      "geometry": {
        "type": "Point",
        "coordinates": [
          -0.970269,
          51.4543542
        ]
      },
      "type": "Feature",
      "properties": {
        "category": "DSP",
        "companycode": "2092",
        "address": "READING ,RG12AH",
        "storecode": "2001254",
        "region": "DS"
      }
    },
    {
      "geometry": {
        "type": "Point",
        "coordinates": [
          -0.8032157000000001,
          53.0843271
        ]
      },
      "type": "Feature",
      "properties": {
        "category": "DSP",
        "companycode": "6161",
        "address": "Newark Northgate,NG241GA",
        "storecode": "2000000",
        "region": "DS"
      }
    },
    {
      "geometry": {
        "type": "Point",
        "coordinates": [
          -0.9527519000000001,
          52.9524707
        ]
      },
      "type": "Feature",
      "properties": {
        "category": "DSP",
        "companycode": "0021",
        "address": "Bingham Eaton Place,NG138BD",
        "storecode": "2000002",
        "region": "DS"
      }
    },
    {
      "geometry": {
        "type": "Point",
        "coordinates": [
          0.1137577,
          51.75771229999999
        ]
      },
      "type": "Feature",
      "properties": {
        "category": "DSP",
        "companycode": "5352",
        "address": "HARLOW ,CM186NS",
        "storecode": "2001452",
        "region": "DS"
      }
    },
    {
      "geometry": {
        "type": "Point",
        "coordinates": [
          0.4402684,
          52.08273089999999
        ]
      },
      "type": "Feature",
      "properties": {
        "category": "DSP",
        "companycode": "166",
        "address": "HAVERHILL ,CB98AD",
        "storecode": "2000626",
        "region": "DS"
      }
    },
    {
      "geometry": {
        "type": "Point",
        "coordinates": [
          -3.0434125,
          53.87820139999999
        ]
      },
      "type": "Feature",
      "properties": {
        "category": "DSP",
        "companycode": "1244",
        "address": "THORNTON-CLEVELEYS ,FY51BS",
        "storecode": "2001003",
        "region": "DS"
      }
    },
    {
      "geometry": {
        "type": "Point",
        "coordinates": [
          -0.0707458,
          52.3235778
        ]
      },
      "type": "Feature",
      "properties": {
        "category": "DSP",
        "companycode": "167",
        "address": "ST. IVES ,PE275AH",
        "storecode": "2000627",
        "region": "DS"
      }
    },
    {
      "geometry": {
        "type": "Point",
        "coordinates": [
          -1.3711726,
          52.5426348
        ]
      },
      "type": "Feature",
      "properties": {
        "category": "DSP",
        "companycode": "74",
        "address": "Hinckley Britannia Ctr ,LE101RU",
        "storecode": "2000128",
        "region": "DS"
      }
    },
    {
      "geometry": {
        "type": "Point",
        "coordinates": [
          -2.1459234,
          52.9024484
        ]
      },
      "type": "Feature",
      "properties": {
        "category": "DSP",
        "companycode": "162",
        "address": "Stone High St ,ST158AW",
        "storecode": "2000130",
        "region": "DS"
      }
    },
    {
      "geometry": {
        "type": "Point",
        "coordinates": [
          -1.9425741,
          52.3065764
        ]
      },
      "type": "Feature",
      "properties": {
        "category": "DSP",
        "companycode": "256",
        "address": "Redditch Kingfisher Sc ,B974EY",
        "storecode": "2000131",
        "region": "DS"
      }
    },
    {
      "geometry": {
        "type": "Point",
        "coordinates": [
          -3.4422074,
          51.7146094
        ]
      },
      "type": "Feature",
      "properties": {
        "category": "DSP",
        "companycode": "285",
        "address": "Aberdare Commercial Street,CF447RW",
        "storecode": "2000132",
        "region": "DS"
      }
    },
    {
      "geometry": {
        "type": "Point",
        "coordinates": [
          -4.9417898,
          51.6940511
        ]
      },
      "type": "Feature",
      "properties": {
        "category": "DSP",
        "companycode": "328",
        "address": "Pembroke Dock Dimond Street,SA726AH",
        "storecode": "2000133",
        "region": "DS"
      }
    },
    {
      "geometry": {
        "type": "Point",
        "coordinates": [
          -3.5048448,
          51.65970799999999
        ]
      },
      "type": "Feature",
      "properties": {
        "category": "DSP",
        "companycode": "341",
        "address": "Treorchy High Street,CF426AT",
        "storecode": "2000134",
        "region": "DS"
      }
    },
    {
      "geometry": {
        "type": "Point",
        "coordinates": [
          -3.3158624,
          52.5150851
        ]
      },
      "type": "Feature",
      "properties": {
        "category": "DSP",
        "companycode": "366",
        "address": "Newtown High Street,SY162NU",
        "storecode": "2000136",
        "region": "DS"
      }
    },
    {
      "geometry": {
        "type": "Point",
        "coordinates": [
          -3.4906045,
          53.3222823
        ]
      },
      "type": "Feature",
      "properties": {
        "category": "DSP",
        "companycode": "380",
        "address": "Rhyl High Street,LL181EN",
        "storecode": "2000137",
        "region": "DS"
      }
    },
    {
      "geometry": {
        "type": "Point",
        "coordinates": [
          -3.141078,
          53.1673747
        ]
      },
      "type": "Feature",
      "properties": {
        "category": "DSP",
        "companycode": "421",
        "address": "Mold 19-21 High Street,CH71AZ",
        "storecode": "2000138",
        "region": "DS"
      }
    },
    {
      "geometry": {
        "type": "Point",
        "coordinates": [
          -3.8287728,
          53.3234613
        ]
      },
      "type": "Feature",
      "properties": {
        "category": "DSP",
        "companycode": "443",
        "address": "Llandudno Victoria Centre,LL302NG",
        "storecode": "2000139",
        "region": "DS"
      }
    },
    {
      "geometry": {
        "type": "Point",
        "coordinates": [
          -2.6741634,
          51.6418139
        ]
      },
      "type": "Feature",
      "properties": {
        "category": "DSP",
        "companycode": "451",
        "address": "Chepstow High Street,NP165LQ",
        "storecode": "2000140",
        "region": "DS"
      }
    },
    {
      "geometry": {
        "type": "Point",
        "coordinates": [
          -3.3785411,
          52.2430495
        ]
      },
      "type": "Feature",
      "properties": {
        "category": "DSP",
        "companycode": "455",
        "address": "Llandrindod Wells Station Crescent,LD15BB",
        "storecode": "2000141",
        "region": "DS"
      }
    },
    {
      "geometry": {
        "type": "Point",
        "coordinates": [
          -4.2582179,
          52.2426959
        ]
      },
      "type": "Feature",
      "properties": {
        "category": "DSP",
        "companycode": "458",
        "address": "Aberaeron Bridge Street,SA460AP",
        "storecode": "2000142",
        "region": "DS"
      }
    },
    {
      "geometry": {
        "type": "Point",
        "coordinates": [
          -3.4540369,
          51.621985
        ]
      },
      "type": "Feature",
      "properties": {
        "category": "DSP",
        "companycode": "468",
        "address": "Tonypandy Dunraven Street,CF401AS",
        "storecode": "2000144",
        "region": "DS"
      }
    },
    {
      "geometry": {
        "type": "Point",
        "coordinates": [
          -3.9776769,
          55.8670949
        ]
      },
      "type": "Feature",
      "properties": {
        "category": "DSP",
        "companycode": "617",
        "address": "Airdrie 19 Graham St ,ML66DD",
        "storecode": "2000145",
        "region": "DS"
      }
    },
    {
      "geometry": {
        "type": "Point",
        "coordinates": [
          -0.0141715,
          51.5119457
        ]
      },
      "type": "Feature",
      "properties": {
        "category": "DSP",
        "companycode": "728",
        "address": "London Poplar ,E146BT",
        "storecode": "2000147",
        "region": "DS"
      }
    },
    {
      "geometry": {
        "type": "Point",
        "coordinates": [
          -0.1173293,
          51.5577244
        ]
      },
      "type": "Feature",
      "properties": {
        "category": "DSP",
        "companycode": "786",
        "address": "London Holloway Rd ,N76QA",
        "storecode": "2000149",
        "region": "DS"
      }
    },
    {
      "geometry": {
        "type": "Point",
        "coordinates": [
          -0.1173293,
          51.5577244
        ]
      },
      "type": "Feature",
      "properties": {
        "category": "DSP",
        "companycode": "836",
        "address": "Bromley The Glades Sc ,BR1HD",
        "storecode": "2000150",
        "region": "DS"
      }
    },
    {
      "geometry": {
        "type": "Point",
        "coordinates": [
          -0.2045468,
          51.4218565
        ]
      },
      "type": "Feature",
      "properties": {
        "category": "DSP",
        "companycode": "853",
        "address": "London Wimbledon Ctr Ct Sc ,SW198YE",
        "storecode": "2000151",
        "region": "DS"
      }
    },
    {
      "geometry": {
        "type": "Point",
        "coordinates": [
          -1.4974746,
          50.9891622
        ]
      },
      "type": "Feature",
      "properties": {
        "category": "DSP",
        "companycode": "1019",
        "address": "Romsey The Hundred ,SO518GD",
        "storecode": "2000153",
        "region": "DS"
      }
    },
    {
      "geometry": {
        "type": "Point",
        "coordinates": [
          -1.1777078,
          50.8533256
        ]
      },
      "type": "Feature",
      "properties": {
        "category": "DSP",
        "companycode": "1023",
        "address": "Fareham Westbury Mall ,PO160PE",
        "storecode": "2000154",
        "region": "DS"
      }
    },
    {
      "geometry": {
        "type": "Point",
        "coordinates": [
          -0.5906935999999999,
          51.508508
        ]
      },
      "type": "Feature",
      "properties": {
        "category": "DSP",
        "companycode": "1038",
        "address": "Slough High St ,SL11JR",
        "storecode": "2000155",
        "region": "DS"
      }
    },
    {
      "geometry": {
        "type": "Point",
        "coordinates": [
          -1.1627008,
          50.7290419
        ]
      },
      "type": "Feature",
      "properties": {
        "category": "DSP",
        "companycode": "1001",
        "address": "Isle of Wight Ryde High St ,PO332HW",
        "storecode": "2000156",
        "region": "DS"
      }
    },
    {
      "geometry": {
        "type": "Point",
        "coordinates": [
          0.2835769,
          51.5103806
        ]
      },
      "type": "Feature",
      "properties": {
        "category": "DSP",
        "companycode": "1076",
        "address": "South Ockendon Derwent Pde ,RM155EF",
        "storecode": "2000157",
        "region": "DS"
      }
    },
    {
      "geometry": {
        "type": "Point",
        "coordinates": [
          -2.1990014,
          53.4561767
        ]
      },
      "type": "Feature",
      "properties": {
        "category": "DSP",
        "companycode": "1112",
        "address": "Manchester Longsight ,M130RQ",
        "storecode": "2000158",
        "region": "DS"
      }
    },
    {
      "geometry": {
        "type": "Point",
        "coordinates": [
          -3.0608392,
          53.55735199999999
        ]
      },
      "type": "Feature",
      "properties": {
        "category": "DSP",
        "companycode": "1113",
        "address": "Formby Chapel Ln ,L374DL",
        "storecode": "2000159",
        "region": "DS"
      }
    },
    {
      "geometry": {
        "type": "Point",
        "coordinates": [
          -2.1398227,
          53.5464997
        ]
      },
      "type": "Feature",
      "properties": {
        "category": "DSP",
        "companycode": "1144",
        "address": "Oldham Chadderton ,OL90LQ",
        "storecode": "2000160",
        "region": "DS"
      }
    },
    {
      "geometry": {
        "type": "Point",
        "coordinates": [
          -2.7724257,
          53.5509297
        ]
      },
      "type": "Feature",
      "properties": {
        "category": "DSP",
        "companycode": "1147",
        "address": "Skelmersdale ,WN86ND",
        "storecode": "2000162",
        "region": "DS"
      }
    },
    {
      "geometry": {
        "type": "Point",
        "coordinates": [
          -2.9802083,
          53.4057616
        ]
      },
      "type": "Feature",
      "properties": {
        "category": "DSP",
        "companycode": "1150",
        "address": "Liverpool Clayton Sq Sc ,L11QR",
        "storecode": "2000163",
        "region": "DS"
      }
    },
    {
      "geometry": {
        "type": "Point",
        "coordinates": [
          -2.1990701,
          53.5490601
        ]
      },
      "type": "Feature",
      "properties": {
        "category": "DSP",
        "companycode": "1188",
        "address": "Manchester Middleton Sc ,M244EL",
        "storecode": "2000164",
        "region": "DS"
      }
    },
    {
      "geometry": {
        "type": "Point",
        "coordinates": [
          -2.5161543,
          53.4968739
        ]
      },
      "type": "Feature",
      "properties": {
        "category": "DSP",
        "companycode": "1223",
        "address": "Wigan Leigh ,WN74NB",
        "storecode": "2000165",
        "region": "DS"
      }
    },
    {
      "geometry": {
        "type": "Point",
        "coordinates": [
          -2.4939789,
          53.52386190000001
        ]
      },
      "type": "Feature",
      "properties": {
        "category": "DSP",
        "companycode": "1227",
        "address": "Manchester Atherton ,M460DP",
        "storecode": "2000166",
        "region": "DS"
      }
    },
    {
      "geometry": {
        "type": "Point",
        "coordinates": [
          -3.0256052,
          53.4925992
        ]
      },
      "type": "Feature",
      "properties": {
        "category": "DSP",
        "companycode": "1236",
        "address": "Liverpool Crosby ,L235SF",
        "storecode": "2000167",
        "region": "DS"
      }
    },
    {
      "geometry": {
        "type": "Point",
        "coordinates": [
          -2.1676631,
          53.40185169999999
        ]
      },
      "type": "Feature",
      "properties": {
        "category": "DSP",
        "companycode": "1251",
        "address": "Stockport Edgeley ,SK39AL",
        "storecode": "2000168",
        "region": "DS"
      }
    },
    {
      "geometry": {
        "type": "Point",
        "coordinates": [
          -2.1459859,
          53.4807712
        ]
      },
      "type": "Feature",
      "properties": {
        "category": "DSP",
        "companycode": "1255",
        "address": "Droylsden Queens Walk ,M437AD",
        "storecode": "2000169",
        "region": "DS"
      }
    },
    {
      "geometry": {
        "type": "Point",
        "coordinates": [
          -0.9419092,
          51.00473390000001
        ]
      },
      "type": "Feature",
      "properties": {
        "category": "DSP",
        "companycode": "1317",
        "address": "Petersfield Swan Surgery ,GU323AB",
        "storecode": "2000170",
        "region": "DS"
      }
    },
    {
      "geometry": {
        "type": "Point",
        "coordinates": [
          -1.261763,
          51.4044685
        ]
      },
      "type": "Feature",
      "properties": {
        "category": "DSP",
        "companycode": "1322",
        "address": "Thatcham Hc ,RG183HD",
        "storecode": "2000171",
        "region": "DS"
      }
    },
    {
      "geometry": {
        "type": "Point",
        "coordinates": [
          -4.7592565,
          55.9491331
        ]
      },
      "type": "Feature",
      "properties": {
        "category": "DSP",
        "companycode": "630",
        "address": "Greenock Hamilton Way ,PA151RQ",
        "storecode": "2000174",
        "region": "DS"
      }
    },
    {
      "geometry": {
        "type": "Point",
        "coordinates": [
          -2.4670987,
          56.7121912
        ]
      },
      "type": "Feature",
      "properties": {
        "category": "DSP",
        "companycode": "642",
        "address": "Montrose High St ,DD108QZ",
        "storecode": "2000175",
        "region": "DS"
      }
    },
    {
      "geometry": {
        "type": "Point",
        "coordinates": [
          -1.4568743,
          52.9275057
        ]
      },
      "type": "Feature",
      "properties": {
        "category": "DSP",
        "companycode": "1333",
        "address": "Derby Chaddesden Derw Pk Hc ,DE216AT",
        "storecode": "2000176",
        "region": "DS"
      }
    },
    {
      "geometry": {
        "type": "Point",
        "coordinates": [
          -2.6953674,
          53.3262188
        ]
      },
      "type": "Feature",
      "properties": {
        "category": "DSP",
        "companycode": "1352",
        "address": "Runcorn Hallwood Hc ,WA72UT",
        "storecode": "2000177",
        "region": "DS"
      }
    },
    {
      "geometry": {
        "type": "Point",
        "coordinates": [
          -0.1755607,
          51.3851583
        ]
      },
      "type": "Feature",
      "properties": {
        "category": "DSP",
        "companycode": "1420",
        "address": "Carshalton Middleton Rd ,SM51HA",
        "storecode": "2000178",
        "region": "DS"
      }
    },
    {
      "geometry": {
        "type": "Point",
        "coordinates": [
          0.0944093,
          51.7701157
        ]
      },
      "type": "Feature",
      "properties": {
        "category": "DSP",
        "companycode": "1813",
        "address": "Harlow Broad Walk ,CM201JA",
        "storecode": "2000179",
        "region": "DS"
      }
    },
    {
      "geometry": {
        "type": "Point",
        "coordinates": [
          0.219053,
          51.606824
        ]
      },
      "type": "Feature",
      "properties": {
        "category": "DSP",
        "companycode": "1817",
        "address": "Romford Farnham Rd ,RM38DX",
        "storecode": "2000180",
        "region": "DS"
      }
    },
    {
      "geometry": {
        "type": "Point",
        "coordinates": [
          -0.7917894999999999,
          50.7324554
        ]
      },
      "type": "Feature",
      "properties": {
        "category": "DSP",
        "companycode": "1862",
        "address": "Selsey High St ,PO200QB",
        "storecode": "2000181",
        "region": "DS"
      }
    },
    {
      "geometry": {
        "type": "Point",
        "coordinates": [
          -2.5122471,
          53.26231
        ]
      },
      "type": "Feature",
      "properties": {
        "category": "DSP",
        "companycode": "2030",
        "address": "Northwich Witton St ,CW95DH",
        "storecode": "2000182",
        "region": "DS"
      }
    },
    {
      "geometry": {
        "type": "Point",
        "coordinates": [
          -3.3898062,
          51.9483897
        ]
      },
      "type": "Feature",
      "properties": {
        "category": "DSP",
        "companycode": "2074",
        "address": "Brecon Bethal Square,LD37JP",
        "storecode": "2000183",
        "region": "DS"
      }
    },
    {
      "geometry": {
        "type": "Point",
        "coordinates": [
          -3.2429485,
          51.7758407
        ]
      },
      "type": "Feature",
      "properties": {
        "category": "DSP",
        "companycode": "2105",
        "address": "Tredegar Gwent Shopping Centre,NP223EJ",
        "storecode": "2000184",
        "region": "DS"
      }
    },
    {
      "geometry": {
        "type": "Point",
        "coordinates": [
          -4.1785957,
          55.7605556
        ]
      },
      "type": "Feature",
      "properties": {
        "category": "DSP",
        "companycode": "6028",
        "address": "East Kilbride The Plz ,G741LW",
        "storecode": "2000185",
        "region": "DS"
      }
    },
    {
      "geometry": {
        "type": "Point",
        "coordinates": [
          -4.5808142,
          55.9875408
        ]
      },
      "type": "Feature",
      "properties": {
        "category": "DSP",
        "companycode": "616",
        "address": "Alexandria Main St ,G830NX",
        "storecode": "2000188",
        "region": "DS"
      }
    },
    {
      "geometry": {
        "type": "Point",
        "coordinates": [
          -2.8747215,
          53.3522833
        ]
      },
      "type": "Feature",
      "properties": {
        "category": "DSP",
        "companycode": "6478",
        "address": "Liverpool New Mersey Rp ,L248QB",
        "storecode": "2000189",
        "region": "DS"
      }
    },
    {
      "geometry": {
        "type": "Point",
        "coordinates": [
          -0.5069608999999999,
          50.8112243
        ]
      },
      "type": "Feature",
      "properties": {
        "category": "DSP",
        "companycode": "65",
        "address": "Rustington 6-7 Churchill Pde ,BN163DJ",
        "storecode": "2000190",
        "region": "DS"
      }
    },
    {
      "geometry": {
        "type": "Point",
        "coordinates": [
          -0.2636065,
          52.0864987
        ]
      },
      "type": "Feature",
      "properties": {
        "category": "DSP",
        "companycode": "165",
        "address": "Biggleswade Market Sq ,SG188AS",
        "storecode": "2000191",
        "region": "DS"
      }
    },
    {
      "geometry": {
        "type": "Point",
        "coordinates": [
          -1.7394411,
          52.4797874
        ]
      },
      "type": "Feature",
      "properties": {
        "category": "DSP",
        "companycode": "217",
        "address": "Birmingham Chelmsley Wood ,B375TL",
        "storecode": "2000192",
        "region": "DS"
      }
    },
    {
      "geometry": {
        "type": "Point",
        "coordinates": [
          -4.2607485,
          55.8654636
        ]
      },
      "type": "Feature",
      "properties": {
        "category": "DSP",
        "companycode": "600",
        "address": "Glasgow 200 Sauchiehall St ,G23EN",
        "storecode": "2000193",
        "region": "DS"
      }
    },
    {
      "geometry": {
        "type": "Point",
        "coordinates": [
          -3.9897161,
          55.7903723
        ]
      },
      "type": "Feature",
      "properties": {
        "category": "DSP",
        "companycode": "622",
        "address": "Motherwell Brandon Pde South ,ML11RE",
        "storecode": "2000194",
        "region": "DS"
      }
    },
    {
      "geometry": {
        "type": "Point",
        "coordinates": [
          -4.3370112,
          55.8234152
        ]
      },
      "type": "Feature",
      "properties": {
        "category": "DSP",
        "companycode": "644",
        "address": "Glasgow Silverburn Sc ,G536AG",
        "storecode": "2000195",
        "region": "DS"
      }
    },
    {
      "geometry": {
        "type": "Point",
        "coordinates": [
          -3.2005272,
          55.9518697
        ]
      },
      "type": "Feature",
      "properties": {
        "category": "DSP",
        "companycode": "650",
        "address": "Edinburgh 101-103 Princes St ,EH23AA",
        "storecode": "2000196",
        "region": "DS"
      }
    },
    {
      "geometry": {
        "type": "Point",
        "coordinates": [
          -2.9697634,
          56.4608287
        ]
      },
      "type": "Feature",
      "properties": {
        "category": "DSP",
        "companycode": "669",
        "address": "Dundee High St ,DD11UL",
        "storecode": "2000197",
        "region": "DS"
      }
    },
    {
      "geometry": {
        "type": "Point",
        "coordinates": [
          0.4587125,
          51.5709485
        ]
      },
      "type": "Feature",
      "properties": {
        "category": "DSP",
        "companycode": "715",
        "address": "Basildon Town Sq ,SS141BA",
        "storecode": "2000198",
        "region": "DS"
      }
    },
    {
      "geometry": {
        "type": "Point",
        "coordinates": [
          0.07465329999999999,
          51.5601114
        ]
      },
      "type": "Feature",
      "properties": {
        "category": "DSP",
        "companycode": "717",
        "address": "Ilford 177-185 High Rd ,IG11DG",
        "storecode": "2000199",
        "region": "DS"
      }
    },
    {
      "geometry": {
        "type": "Point",
        "coordinates": [
          -0.2947066,
          51.5535418
        ]
      },
      "type": "Feature",
      "properties": {
        "category": "DSP",
        "companycode": "720",
        "address": "London Wembley High Rd ,HA97BH",
        "storecode": "2000200",
        "region": "DS"
      }
    },
    {
      "geometry": {
        "type": "Point",
        "coordinates": [
          -0.3608248,
          51.4690154
        ]
      },
      "type": "Feature",
      "properties": {
        "category": "DSP",
        "companycode": "740",
        "address": "Hounslow High St ,TW31BL",
        "storecode": "2000201",
        "region": "DS"
      }
    },
    {
      "geometry": {
        "type": "Point",
        "coordinates": [
          -0.2209558,
          51.577504
        ]
      },
      "type": "Feature",
      "properties": {
        "category": "DSP",
        "companycode": "746",
        "address": "London Brent Cross Sc ,NW43FB",
        "storecode": "2000202",
        "region": "DS"
      }
    },
    {
      "geometry": {
        "type": "Point",
        "coordinates": [
          -0.1763985,
          51.54486499999999
        ]
      },
      "type": "Feature",
      "properties": {
        "category": "DSP",
        "companycode": "781",
        "address": "London Swiss Cottage ,NW36JP",
        "storecode": "2000204",
        "region": "DS"
      }
    },
    {
      "geometry": {
        "type": "Point",
        "coordinates": [
          -0.2004613,
          51.6561768
        ]
      },
      "type": "Feature",
      "properties": {
        "category": "DSP",
        "companycode": "798",
        "address": "Barnet High St ,EN55XP",
        "storecode": "2000205",
        "region": "DS"
      }
    },
    {
      "geometry": {
        "type": "Point",
        "coordinates": [
          0.1472566,
          51.4560869
        ]
      },
      "type": "Feature",
      "properties": {
        "category": "DSP",
        "companycode": "846",
        "address": "Bexleyheath Broadway Sc ,DA67JJ",
        "storecode": "2000207",
        "region": "DS"
      }
    },
    {
      "geometry": {
        "type": "Point",
        "coordinates": [
          -0.1932031,
          51.36357539999999
        ]
      },
      "type": "Feature",
      "properties": {
        "category": "DSP",
        "companycode": "858",
        "address": "Sutton High St ,SM11JG",
        "storecode": "2000208",
        "region": "DS"
      }
    },
    {
      "geometry": {
        "type": "Point",
        "coordinates": [
          0.0540126,
          51.4507731
        ]
      },
      "type": "Feature",
      "properties": {
        "category": "DSP",
        "companycode": "892",
        "address": "London Eltham ,SE91BW",
        "storecode": "2000209",
        "region": "DS"
      }
    },
    {
      "geometry": {
        "type": "Point",
        "coordinates": [
          0.5271518000000001,
          51.3833376
        ]
      },
      "type": "Feature",
      "properties": {
        "category": "DSP",
        "companycode": "940",
        "address": "Chatham Pentagon Ctr ,ME44BB",
        "storecode": "2000210",
        "region": "DS"
      }
    },
    {
      "geometry": {
        "type": "Point",
        "coordinates": [
          -0.7643723,
          51.2492321
        ]
      },
      "type": "Feature",
      "properties": {
        "category": "DSP",
        "companycode": "953",
        "address": "Aldershot Wellington Ctr ,GU111DB",
        "storecode": "2000211",
        "region": "DS"
      }
    },
    {
      "geometry": {
        "type": "Point",
        "coordinates": [
          -0.9762345,
          51.148601
        ]
      },
      "type": "Feature",
      "properties": {
        "category": "DSP",
        "companycode": "1012",
        "address": "Alton 52 High St ,GU341ET",
        "storecode": "2000213",
        "region": "DS"
      }
    },
    {
      "geometry": {
        "type": "Point",
        "coordinates": [
          -2.8031076,
          53.4294919
        ]
      },
      "type": "Feature",
      "properties": {
        "category": "DSP",
        "companycode": "1240",
        "address": "Prescot Eccleston St ,L345QJ",
        "storecode": "2000214",
        "region": "DS"
      }
    },
    {
      "geometry": {
        "type": "Point",
        "coordinates": [
          0.1834368,
          51.580455
        ]
      },
      "type": "Feature",
      "properties": {
        "category": "DSP",
        "companycode": "1356",
        "address": "Romford Market Pl ,RM13AB",
        "storecode": "2000215",
        "region": "DS"
      }
    },
    {
      "geometry": {
        "type": "Point",
        "coordinates": [
          -1.654384,
          50.7544011
        ]
      },
      "type": "Feature",
      "properties": {
        "category": "DSP",
        "companycode": "1452",
        "address": "New Milton Station Rd ,BH256HY",
        "storecode": "2000216",
        "region": "DS"
      }
    },
    {
      "geometry": {
        "type": "Point",
        "coordinates": [
          0.1495486,
          51.5412847
        ]
      },
      "type": "Feature",
      "properties": {
        "category": "DSP",
        "companycode": "1455",
        "address": "Dagenham Heathway The Mall ,RM108RE",
        "storecode": "2000217",
        "region": "DS"
      }
    },
    {
      "geometry": {
        "type": "Point",
        "coordinates": [
          -0.1306069,
          50.9553656
        ]
      },
      "type": "Feature",
      "properties": {
        "category": "DSP",
        "companycode": "1465",
        "address": "Burgess Hill Market Pl ,RH159NP",
        "storecode": "2000218",
        "region": "DS"
      }
    },
    {
      "geometry": {
        "type": "Point",
        "coordinates": [
          1.2467086,
          51.8311603
        ]
      },
      "type": "Feature",
      "properties": {
        "category": "DSP",
        "companycode": "1829",
        "address": "Frinton On Sea Connaught Ave ,CO139PW",
        "storecode": "2000219",
        "region": "DS"
      }
    },
    {
      "geometry": {
        "type": "Point",
        "coordinates": [
          -1.1513124,
          51.8990829
        ]
      },
      "type": "Feature",
      "properties": {
        "category": "DSP",
        "companycode": "2014",
        "address": "Bicester Sheep St ,OX266JJ",
        "storecode": "2000220",
        "region": "DS"
      }
    },
    {
      "geometry": {
        "type": "Point",
        "coordinates": [
          -5.0391464,
          51.7197371
        ]
      },
      "type": "Feature",
      "properties": {
        "category": "DSP",
        "companycode": "2110",
        "address": "Milford Haven Havens Head,SA733AU",
        "storecode": "2000221",
        "region": "DS"
      }
    },
    {
      "geometry": {
        "type": "Point",
        "coordinates": [
          -2.4339144,
          55.5985662
        ]
      },
      "type": "Feature",
      "properties": {
        "category": "DSP",
        "companycode": "6050",
        "address": "Kelso The Sq ,TD57HH",
        "storecode": "2000222",
        "region": "DS"
      }
    },
    {
      "geometry": {
        "type": "Point",
        "coordinates": [
          -4.3630856,
          55.8771712
        ]
      },
      "type": "Feature",
      "properties": {
        "category": "DSP",
        "companycode": "6052",
        "address": "Glasgow Braehead Ctr ,G514BP",
        "storecode": "2000223",
        "region": "DS"
      }
    },
    {
      "geometry": {
        "type": "Point",
        "coordinates": [
          -3.9869694,
          55.9478448
        ]
      },
      "type": "Feature",
      "properties": {
        "category": "DSP",
        "companycode": "2028",
        "address": "Glasgow Cmbrnd Antonine Sc ,G671JW",
        "storecode": "2000224",
        "region": "DS"
      }
    },
    {
      "geometry": {
        "type": "Point",
        "coordinates": [
          -0.02211,
          51.5836714
        ]
      },
      "type": "Feature",
      "properties": {
        "category": "DSP",
        "companycode": "5067",
        "address": "London Walthamstow Selbn Wk ,E177JR",
        "storecode": "2000225",
        "region": "DS"
      }
    },
    {
      "geometry": {
        "type": "Point",
        "coordinates": [
          -2.1198902,
          57.1220489
        ]
      },
      "type": "Feature",
      "properties": {
        "category": "DSP",
        "companycode": "6449",
        "address": "Aberdeen Garthdee Rd Rp ,AB107AY",
        "storecode": "2000226",
        "region": "DS"
      }
    },
    {
      "geometry": {
        "type": "Point",
        "coordinates": [
          -0.2595444,
          52.5418163
        ]
      },
      "type": "Feature",
      "properties": {
        "category": "DSP",
        "companycode": "6450",
        "address": "Pboro Serpentine Green ,PE78BE",
        "storecode": "2000227",
        "region": "DS"
      }
    },
    {
      "geometry": {
        "type": "Point",
        "coordinates": [
          -3.1957062,
          56.13707849999999
        ]
      },
      "type": "Feature",
      "properties": {
        "category": "DSP",
        "companycode": "6487",
        "address": "Kirkcaldy Fife Central Rp ,KY26QL",
        "storecode": "2000228",
        "region": "DS"
      }
    },
    {
      "geometry": {
        "type": "Point",
        "coordinates": [
          -3.784776,
          55.9994429
        ]
      },
      "type": "Feature",
      "properties": {
        "category": "DSP",
        "companycode": "682",
        "address": "Falkirk 79-91 High St ,FK11HB",
        "storecode": "2000230",
        "region": "DS"
      }
    },
    {
      "geometry": {
        "type": "Point",
        "coordinates": [
          -2.2801957,
          53.70157769999999
        ]
      },
      "type": "Feature",
      "properties": {
        "category": "DSP",
        "companycode": "1302",
        "address": "Rawtenstall Bacup Rd Hc ,BB47PL",
        "storecode": "2000231",
        "region": "DS"
      }
    },
    {
      "geometry": {
        "type": "Point",
        "coordinates": [
          -1.1531057,
          50.72793230000001
        ]
      },
      "type": "Feature",
      "properties": {
        "category": "DSP",
        "companycode": "1671",
        "address": "IOW Ryde Tower Hse ,PO331LP",
        "storecode": "2000233",
        "region": "DS"
      }
    },
    {
      "geometry": {
        "type": "Point",
        "coordinates": [
          -2.2052534,
          53.5473663
        ]
      },
      "type": "Feature",
      "properties": {
        "category": "DSP",
        "companycode": "1206",
        "address": "Manchester Middleton Hc ,M244DZ",
        "storecode": "2000234",
        "region": "DS"
      }
    },
    {
      "geometry": {
        "type": "Point",
        "coordinates": [
          -2.7255926,
          53.2940523
        ]
      },
      "type": "Feature",
      "properties": {
        "category": "DSP",
        "companycode": "1208",
        "address": "Frodsham The Princeway Hc ,WA66RX",
        "storecode": "2000235",
        "region": "DS"
      }
    },
    {
      "geometry": {
        "type": "Point",
        "coordinates": [
          -1.4569887,
          52.4175559
        ]
      },
      "type": "Feature",
      "properties": {
        "category": "DSP",
        "companycode": "1269",
        "address": "Coventry Farren Rd ,CV25EP",
        "storecode": "2000236",
        "region": "DS"
      }
    },
    {
      "geometry": {
        "type": "Point",
        "coordinates": [
          -0.0845934,
          51.7103909
        ]
      },
      "type": "Feature",
      "properties": {
        "category": "DSP",
        "companycode": "1283",
        "address": "Waltham Cross Goffs Oak ,EN75ET",
        "storecode": "2000237",
        "region": "DS"
      }
    },
    {
      "geometry": {
        "type": "Point",
        "coordinates": [
          1.5018902,
          52.343867
        ]
      },
      "type": "Feature",
      "properties": {
        "category": "DSP",
        "companycode": "5291",
        "address": "Halesworth Market Pl ,IP198AY",
        "storecode": "2000239",
        "region": "DS"
      }
    },
    {
      "geometry": {
        "type": "Point",
        "coordinates": [
          -1.5834092,
          51.6583301
        ]
      },
      "type": "Feature",
      "properties": {
        "category": "DSP",
        "companycode": "5292",
        "address": "Faringdon Market Pl ,SN77HP",
        "storecode": "2000240",
        "region": "DS"
      }
    },
    {
      "geometry": {
        "type": "Point",
        "coordinates": [
          1.5145944,
          52.7724054
        ]
      },
      "type": "Feature",
      "properties": {
        "category": "DSP",
        "companycode": "5296",
        "address": "Stalham High St ,NR129AS",
        "storecode": "2000241",
        "region": "DS"
      }
    },
    {
      "geometry": {
        "type": "Point",
        "coordinates": [
          -1.2302994,
          52.96446479999999
        ]
      },
      "type": "Feature",
      "properties": {
        "category": "DSP",
        "companycode": "1303",
        "address": "Nottm Bilboro Bracebridge ,NG84PN",
        "storecode": "2000242",
        "region": "DS"
      }
    },
    {
      "geometry": {
        "type": "Point",
        "coordinates": [
          -2.4890543,
          54.5776035
        ]
      },
      "type": "Feature",
      "properties": {
        "category": "DSP",
        "companycode": "1401",
        "address": "Appleby in Westmorland ,CA166XF",
        "storecode": "2000243",
        "region": "DS"
      }
    },
    {
      "geometry": {
        "type": "Point",
        "coordinates": [
          -4.308911999999999,
          52.0410541
        ]
      },
      "type": "Feature",
      "properties": {
        "category": "DSP",
        "companycode": "1417",
        "address": "Llandysul Lincoln Street,SA444BJ",
        "storecode": "2000244",
        "region": "DS"
      }
    },
    {
      "geometry": {
        "type": "Point",
        "coordinates": [
          -1.5042182,
          52.5311564
        ]
      },
      "type": "Feature",
      "properties": {
        "category": "DSP",
        "companycode": "1429",
        "address": "Nuneaton Camp Hill ,CV109FB",
        "storecode": "2000245",
        "region": "DS"
      }
    },
    {
      "geometry": {
        "type": "Point",
        "coordinates": [
          1.0798011,
          51.7998689
        ]
      },
      "type": "Feature",
      "properties": {
        "category": "DSP",
        "companycode": "1591",
        "address": "St Osyth Clacton Rd ,CO168PA",
        "storecode": "2000246",
        "region": "DS"
      }
    },
    {
      "geometry": {
        "type": "Point",
        "coordinates": [
          -3.0058896,
          53.465629
        ]
      },
      "type": "Feature",
      "properties": {
        "category": "DSP",
        "companycode": "1599",
        "address": "Lpool Litherland Seaforth ,L213TX",
        "storecode": "2000247",
        "region": "DS"
      }
    },
    {
      "geometry": {
        "type": "Point",
        "coordinates": [
          -1.4448326,
          52.5368751
        ]
      },
      "type": "Feature",
      "properties": {
        "category": "DSP",
        "companycode": "2201",
        "address": "Nuneaton St Nicholas Pk ,CV116DG",
        "storecode": "2000248",
        "region": "DS"
      }
    },
    {
      "geometry": {
        "type": "Point",
        "coordinates": [
          -2.9711654,
          55.0083059
        ]
      },
      "type": "Feature",
      "properties": {
        "category": "DSP",
        "companycode": "2207",
        "address": "Longtown English St ,CA65SD",
        "storecode": "2000249",
        "region": "DS"
      }
    },
    {
      "geometry": {
        "type": "Point",
        "coordinates": [
          -0.1146569,
          51.4622474
        ]
      },
      "type": "Feature",
      "properties": {
        "category": "DSP",
        "companycode": "808",
        "address": "London Brixton Rd ,SW98HH",
        "storecode": "2000033",
        "region": "DS"
      }
    },
    {
      "geometry": {
        "type": "Point",
        "coordinates": [
          -0.2678551,
          51.3326518
        ]
      },
      "type": "Feature",
      "properties": {
        "category": "DSP",
        "companycode": "809",
        "address": "Epsom Ashley Ctr ,KT185DB",
        "storecode": "2000034",
        "region": "DS"
      }
    },
    {
      "geometry": {
        "type": "Point",
        "coordinates": [
          -0.1647879,
          51.4277052
        ]
      },
      "type": "Feature",
      "properties": {
        "category": "DSP",
        "companycode": "864",
        "address": "London Tooting ,SW179PB",
        "storecode": "2000036",
        "region": "DS"
      }
    },
    {
      "geometry": {
        "type": "Point",
        "coordinates": [
          -0.2741947,
          51.6129908
        ]
      },
      "type": "Feature",
      "properties": {
        "category": "DSP",
        "companycode": "912",
        "address": "Edgware Broadwalk Sc ,HA87BD",
        "storecode": "2000040",
        "region": "DS"
      }
    },
    {
      "geometry": {
        "type": "Point",
        "coordinates": [
          0.8728893999999999,
          51.1498812
        ]
      },
      "type": "Feature",
      "properties": {
        "category": "DSP",
        "companycode": "928",
        "address": "Ashford High St ,TN248TB",
        "storecode": "2000041",
        "region": "DS"
      }
    },
    {
      "geometry": {
        "type": "Point",
        "coordinates": [
          0.2737991,
          51.19291759999999
        ]
      },
      "type": "Feature",
      "properties": {
        "category": "DSP",
        "companycode": "936",
        "address": "Tonbridge High St ,TN91SG",
        "storecode": "2000042",
        "region": "DS"
      }
    },
    {
      "geometry": {
        "type": "Point",
        "coordinates": [
          -0.1683457,
          51.2398876
        ]
      },
      "type": "Feature",
      "properties": {
        "category": "DSP",
        "companycode": "960",
        "address": "Redhill High Street,RH11RD",
        "storecode": "2000043",
        "region": "DS"
      }
    },
    {
      "geometry": {
        "type": "Point",
        "coordinates": [
          0.5736566,
          51.3425537
        ]
      },
      "type": "Feature",
      "properties": {
        "category": "DSP",
        "companycode": "978",
        "address": "Gillingham Hempstead Val Sc ,ME73PB",
        "storecode": "2000044",
        "region": "DS"
      }
    },
    {
      "geometry": {
        "type": "Point",
        "coordinates": [
          -2.3918206,
          53.87235219999999
        ]
      },
      "type": "Feature",
      "properties": {
        "category": "DSP",
        "companycode": "1248",
        "address": "Clitheroe Castle St ,BB72BT",
        "storecode": "2000061",
        "region": "DS"
      }
    },
    {
      "geometry": {
        "type": "Point",
        "coordinates": [
          -1.8144626,
          50.728447
        ]
      },
      "type": "Feature",
      "properties": {
        "category": "DSP",
        "companycode": "1323",
        "address": "Bournemouth Beauford Rd Surg,BH65AJ",
        "storecode": "2000063",
        "region": "DS"
      }
    },
    {
      "geometry": {
        "type": "Point",
        "coordinates": [
          -0.2801649,
          52.5916161
        ]
      },
      "type": "Feature",
      "properties": {
        "category": "DSP",
        "companycode": "1331",
        "address": "Pboro Bretton Rightwell East ,PE38DT",
        "storecode": "2000068",
        "region": "DS"
      }
    },
    {
      "geometry": {
        "type": "Point",
        "coordinates": [
          -2.1286212,
          53.0141225
        ]
      },
      "type": "Feature",
      "properties": {
        "category": "DSP",
        "companycode": "1337",
        "address": "Stoke On T Bentilee Hc ,ST20EU",
        "storecode": "2000071",
        "region": "DS"
      }
    },
    {
      "geometry": {
        "type": "Point",
        "coordinates": [
          -1.0679407,
          52.7013086
        ]
      },
      "type": "Feature",
      "properties": {
        "category": "DSP",
        "companycode": "1359",
        "address": "Leicester Syston ,LE72EQ",
        "storecode": "2000074",
        "region": "DS"
      }
    },
    {
      "geometry": {
        "type": "Point",
        "coordinates": [
          -1.9823178,
          50.7986929
        ]
      },
      "type": "Feature",
      "properties": {
        "category": "DSP",
        "companycode": "1361",
        "address": "Wimborne Quarter Jack H'Ctr,BH211AP",
        "storecode": "2000075",
        "region": "DS"
      }
    },
    {
      "geometry": {
        "type": "Point",
        "coordinates": [
          -2.2064985,
          51.32562679999999
        ]
      },
      "type": "Feature",
      "properties": {
        "category": "DSP",
        "companycode": "2146",
        "address": "Trowbridge HC Prospct Pl,BA148QA",
        "storecode": "2000076",
        "region": "DS"
      }
    },
    {
      "geometry": {
        "type": "Point",
        "coordinates": [
          -0.7106062,
          52.49167
        ]
      },
      "type": "Feature",
      "properties": {
        "category": "DSP",
        "companycode": "1377",
        "address": "Corby Lakeside Surgery ,NN172UR",
        "storecode": "2000078",
        "region": "DS"
      }
    },
    {
      "geometry": {
        "type": "Point",
        "coordinates": [
          -1.1274266,
          53.0039794
        ]
      },
      "type": "Feature",
      "properties": {
        "category": "DSP",
        "companycode": "1801",
        "address": "Nottingham Arnold ,NG57EB",
        "storecode": "2000087",
        "region": "DS"
      }
    },
    {
      "geometry": {
        "type": "Point",
        "coordinates": [
          -1.1602962,
          52.2575768
        ]
      },
      "type": "Feature",
      "properties": {
        "category": "DSP",
        "companycode": "1855",
        "address": "Daventry Bowen Sq ,NN114DR",
        "storecode": "2000089",
        "region": "DS"
      }
    },
    {
      "geometry": {
        "type": "Point",
        "coordinates": [
          -2.3763882,
          52.7687014
        ]
      },
      "type": "Feature",
      "properties": {
        "category": "DSP",
        "companycode": "368",
        "address": "Newport High St ,TF107AQ",
        "storecode": "2000021",
        "region": "DS"
      }
    },
    {
      "geometry": {
        "type": "Point",
        "coordinates": [
          -1.2361721,
          54.57562160000001
        ]
      },
      "type": "Feature",
      "properties": {
        "category": "DSP",
        "companycode": "519",
        "address": "Middlesbrough Cleveland Centre,TS12JZ",
        "storecode": "2000024",
        "region": "DS"
      }
    },
    {
      "geometry": {
        "type": "Point",
        "coordinates": [
          -0.7787294000000001,
          50.8373964
        ]
      },
      "type": "Feature",
      "properties": {
        "category": "DSP",
        "companycode": "577",
        "address": "Chichester 10-12 North Street,PO191LB",
        "storecode": "2000026",
        "region": "DS"
      }
    },
    {
      "geometry": {
        "type": "Point",
        "coordinates": [
          -0.6631642999999999,
          51.916519
        ]
      },
      "type": "Feature",
      "properties": {
        "category": "DSP",
        "companycode": "2001",
        "address": "Leighton Buzzard High St ,LU71DN",
        "storecode": "2000090",
        "region": "DS"
      }
    },
    {
      "geometry": {
        "type": "Point",
        "coordinates": [
          0.8354115999999999,
          51.8853771
        ]
      },
      "type": "Feature",
      "properties": {
        "category": "DSP",
        "companycode": "6436",
        "address": "Colchester Tollgate Ctr ,CO38RG",
        "storecode": "2000097",
        "region": "DS"
      }
    },
    {
      "geometry": {
        "type": "Point",
        "coordinates": [
          0.4969081,
          51.7339058
        ]
      },
      "type": "Feature",
      "properties": {
        "category": "DSP",
        "companycode": "6553",
        "address": "Chelmsford Chelmer Vil Rp ,CM26XE",
        "storecode": "2000099",
        "region": "DS"
      }
    },
    {
      "geometry": {
        "type": "Point",
        "coordinates": [
          -0.882334,
          52.76582519999999
        ]
      },
      "type": "Feature",
      "properties": {
        "category": "DSP",
        "companycode": "5531",
        "address": "Melton Mowbray Hc ,LE131NX",
        "storecode": "2000102",
        "region": "DS"
      }
    },
    {
      "geometry": {
        "type": "Point",
        "coordinates": [
          -1.6321752,
          52.80250969999999
        ]
      },
      "type": "Feature",
      "properties": {
        "category": "DSP",
        "companycode": "64",
        "address": "Burton On Trent Coopers Sq ,DE141DG",
        "storecode": "2000103",
        "region": "DS"
      }
    },
    {
      "geometry": {
        "type": "Point",
        "coordinates": [
          -2.467689,
          53.6964753
        ]
      },
      "type": "Feature",
      "properties": {
        "category": "DSP",
        "companycode": "1193",
        "address": "Darwen Market St ,BB31AZ",
        "storecode": "2000104",
        "region": "DS"
      }
    },
    {
      "geometry": {
        "type": "Point",
        "coordinates": [
          -1.1033316,
          52.5862674
        ]
      },
      "type": "Feature",
      "properties": {
        "category": "DSP",
        "companycode": "38",
        "address": "Leicester Wigston Bell St ,LE181AD",
        "storecode": "2000105",
        "region": "DS"
      }
    },
    {
      "geometry": {
        "type": "Point",
        "coordinates": [
          -2.2411176,
          53.7897058
        ]
      },
      "type": "Feature",
      "properties": {
        "category": "DSP",
        "companycode": "503",
        "address": "Burnley St James St ,BB111QL",
        "storecode": "2000106",
        "region": "DS"
      }
    },
    {
      "geometry": {
        "type": "Point",
        "coordinates": [
          -2.3649848,
          53.7551134
        ]
      },
      "type": "Feature",
      "properties": {
        "category": "DSP",
        "companycode": "1173",
        "address": "Accrington Cornhill ,BB51EX",
        "storecode": "2000107",
        "region": "DS"
      }
    },
    {
      "geometry": {
        "type": "Point",
        "coordinates": [
          -1.555233,
          52.7744592
        ]
      },
      "type": "Feature",
      "properties": {
        "category": "DSP",
        "companycode": "71",
        "address": "Swadlincote High St ,DE118JE",
        "storecode": "2000108",
        "region": "DS"
      }
    },
    {
      "geometry": {
        "type": "Point",
        "coordinates": [
          -1.1463816,
          52.9556911
        ]
      },
      "type": "Feature",
      "properties": {
        "category": "DSP",
        "companycode": "6",
        "address": "Nottingham Victoria Ctr ,NG13QS",
        "storecode": "2000109",
        "region": "DS"
      }
    },
    {
      "geometry": {
        "type": "Point",
        "coordinates": [
          -1.1767355,
          52.9039283
        ]
      },
      "type": "Feature",
      "properties": {
        "category": "DSP",
        "companycode": "17",
        "address": "Nottingham Clifton ,NG118AA",
        "storecode": "2000110",
        "region": "DS"
      }
    },
    {
      "geometry": {
        "type": "Point",
        "coordinates": [
          -0.8961271000000001,
          52.2393595
        ]
      },
      "type": "Feature",
      "properties": {
        "category": "DSP",
        "companycode": "84",
        "address": "Northampton The Pde ,NN12BY",
        "storecode": "2000111",
        "region": "DS"
      }
    },
    {
      "geometry": {
        "type": "Point",
        "coordinates": [
          -0.8989356,
          52.2647613
        ]
      },
      "type": "Feature",
      "properties": {
        "category": "DSP",
        "companycode": "107",
        "address": "Northampton Kingsthorpe ,NN27SJ",
        "storecode": "2000112",
        "region": "DS"
      }
    },
    {
      "geometry": {
        "type": "Point",
        "coordinates": [
          -1.4722419,
          52.7467188
        ]
      },
      "type": "Feature",
      "properties": {
        "category": "DSP",
        "companycode": "141",
        "address": "Ashby De La Zouch Market St ,LE651AL",
        "storecode": "2000113",
        "region": "DS"
      }
    },
    {
      "geometry": {
        "type": "Point",
        "coordinates": [
          -1.9345512,
          52.75987
        ]
      },
      "type": "Feature",
      "properties": {
        "category": "DSP",
        "companycode": "160",
        "address": "Rugeley Brook Sq ,WS152DT",
        "storecode": "2000114",
        "region": "DS"
      }
    },
    {
      "geometry": {
        "type": "Point",
        "coordinates": [
          -1.1658702,
          52.66616399999999
        ]
      },
      "type": "Feature",
      "properties": {
        "category": "DSP",
        "companycode": "189",
        "address": "Leicester Beaumont Leys ,LE41DG",
        "storecode": "2000115",
        "region": "DS"
      }
    },
    {
      "geometry": {
        "type": "Point",
        "coordinates": [
          -2.4272771,
          53.57935639999999
        ]
      },
      "type": "Feature",
      "properties": {
        "category": "DSP",
        "companycode": "531",
        "address": "Bolton The Gates Sc ,BL11DF",
        "storecode": "2000116",
        "region": "DS"
      }
    },
    {
      "geometry": {
        "type": "Point",
        "coordinates": [
          -2.1597193,
          53.4110603
        ]
      },
      "type": "Feature",
      "properties": {
        "category": "DSP",
        "companycode": "1115",
        "address": "Stockport Merseyway ,SK11PU",
        "storecode": "2000117",
        "region": "DS"
      }
    },
    {
      "geometry": {
        "type": "Point",
        "coordinates": [
          -1.8946978,
          52.4801774
        ]
      },
      "type": "Feature",
      "properties": {
        "category": "DSP",
        "companycode": "1298",
        "address": "Birmingham High St ,B47TA",
        "storecode": "2000118",
        "region": "DS"
      }
    },
    {
      "geometry": {
        "type": "Point",
        "coordinates": [
          0.7315978,
          52.0392522
        ]
      },
      "type": "Feature",
      "properties": {
        "category": "DSP",
        "companycode": "176",
        "address": "Sudbury Market Hill ,CO102EA",
        "storecode": "2000119",
        "region": "DS"
      }
    },
    {
      "geometry": {
        "type": "Point",
        "coordinates": [
          -3.195625,
          51.6667846
        ]
      },
      "type": "Feature",
      "properties": {
        "category": "DSP",
        "companycode": "342",
        "address": "Blackwood Market Place,NP121AU",
        "storecode": "2000120",
        "region": "DS"
      }
    },
    {
      "geometry": {
        "type": "Point",
        "coordinates": [
          0.2419998,
          52.02423539999999
        ]
      },
      "type": "Feature",
      "properties": {
        "category": "DSP",
        "companycode": "175",
        "address": "Saffron Walden Market Pl ,CB101HR",
        "storecode": "2000121",
        "region": "DS"
      }
    },
    {
      "geometry": {
        "type": "Point",
        "coordinates": [
          0.332674,
          53.1542705
        ]
      },
      "type": "Feature",
      "properties": {
        "category": "DSP",
        "companycode": "1386",
        "address": "Skegness Churchill Ave Hc ,PE252RN",
        "storecode": "2000122",
        "region": "DS"
      }
    },
    {
      "geometry": {
        "type": "Point",
        "coordinates": [
          0.260401,
          50.8640881
        ]
      },
      "type": "Feature",
      "properties": {
        "category": "DSP",
        "companycode": "1467",
        "address": "Hailsham Vicarage Field ,BN271BG",
        "storecode": "2000123",
        "region": "DS"
      }
    },
    {
      "geometry": {
        "type": "Point",
        "coordinates": [
          -3.0206633,
          51.6530915
        ]
      },
      "type": "Feature",
      "properties": {
        "category": "DSP",
        "companycode": "2023",
        "address": "Cwmbran The Mall,NP441PX",
        "storecode": "2000124",
        "region": "DS"
      }
    },
    {
      "geometry": {
        "type": "Point",
        "coordinates": [
          -3.0206633,
          51.6530915
        ]
      },
      "type": "Feature",
      "properties": {
        "category": "DSP",
        "companycode": "6002",
        "address": "Glenrothes Lyon Sq ,KY75NR",
        "storecode": "2000125",
        "region": "DS"
      }
    },
    {
      "geometry": {
        "type": "Point",
        "coordinates": [
          -3.4024998,
          53.3372983
        ]
      },
      "type": "Feature",
      "properties": {
        "category": "DSP",
        "companycode": "6408",
        "address": "Prestatyn Shopping Park,LL199BJ",
        "storecode": "2000126",
        "region": "DS"
      }
    },
    {
      "geometry": {
        "type": "Point",
        "coordinates": [
          0.6877035,
          52.64950899999999
        ]
      },
      "type": "Feature",
      "properties": {
        "category": "DSP",
        "companycode": "51",
        "address": "Swaffham Market Pl ,PE377LA",
        "storecode": "2000127",
        "region": "DS"
      }
    },
    {
      "geometry": {
        "type": "Point",
        "coordinates": [
          -0.6405881000000001,
          52.910688
        ]
      },
      "type": "Feature",
      "properties": {
        "category": "DSP",
        "companycode": "5410",
        "address": "Grantham St Peters Hill ,NG316QF",
        "storecode": "2000362",
        "region": "DS"
      }
    },
    {
      "geometry": {
        "type": "Point",
        "coordinates": [
          -3.0235716,
          51.6490132
        ]
      },
      "type": "Feature",
      "properties": {
        "category": "DSP",
        "companycode": "5954",
        "address": "Cwmbran Commercial Street,NP443LR",
        "storecode": "2000364",
        "region": "DS"
      }
    },
    {
      "geometry": {
        "type": "Point",
        "coordinates": [
          1.1218958,
          52.5723451
        ]
      },
      "type": "Feature",
      "properties": {
        "category": "DSP",
        "companycode": "5382",
        "address": "Wymondham Medical Centre ,NR180NL",
        "storecode": "2000365",
        "region": "DS"
      }
    },
    {
      "geometry": {
        "type": "Point",
        "coordinates": [
          -0.278517,
          51.9484652
        ]
      },
      "type": "Feature",
      "properties": {
        "category": "DSP",
        "companycode": "756",
        "address": "Hitchin High Street ,SG51BH",
        "storecode": "2000369",
        "region": "DS"
      }
    },
    {
      "geometry": {
        "type": "Point",
        "coordinates": [
          -0.641474,
          52.9117997
        ]
      },
      "type": "Feature",
      "properties": {
        "category": "DSP",
        "companycode": "37",
        "address": "Grantham High Street ,NG316NE",
        "storecode": "2000370",
        "region": "DS"
      }
    },
    {
      "geometry": {
        "type": "Point",
        "coordinates": [
          -2.0596996,
          52.3352067
        ]
      },
      "type": "Feature",
      "properties": {
        "category": "DSP",
        "companycode": "258",
        "address": "Bromsgrove High St ,B618HD",
        "storecode": "2000372",
        "region": "DS"
      }
    },
    {
      "geometry": {
        "type": "Point",
        "coordinates": [
          -2.2126921,
          53.5338967
        ]
      },
      "type": "Feature",
      "properties": {
        "category": "DSP",
        "companycode": "1299",
        "address": "Manchester Blackley ,M90RD",
        "storecode": "2000374",
        "region": "DS"
      }
    },
    {
      "geometry": {
        "type": "Point",
        "coordinates": [
          -1.3851931,
          50.9389569
        ]
      },
      "type": "Feature",
      "properties": {
        "category": "DSP",
        "companycode": "5745",
        "address": "SOUTHAMPTON ,SO163BD",
        "storecode": "2001633",
        "region": "DS"
      }
    },
    {
      "geometry": {
        "type": "Point",
        "coordinates": [
          -0.4758329000000001,
          51.5460883
        ]
      },
      "type": "Feature",
      "properties": {
        "category": "DSP",
        "companycode": "132",
        "address": "UXBRIDGE ,UB81GA",
        "storecode": "2000616",
        "region": "DS"
      }
    },
    {
      "geometry": {
        "type": "Point",
        "coordinates": [
          -4.0514806,
          50.3878753
        ]
      },
      "type": "Feature",
      "properties": {
        "category": "DSP",
        "companycode": "351",
        "address": "PLYMOUTH ,PL72ZN",
        "storecode": "2000678",
        "region": "DS"
      }
    },
    {
      "geometry": {
        "type": "Point",
        "coordinates": [
          0.0799231,
          51.5379144
        ]
      },
      "type": "Feature",
      "properties": {
        "category": "DSP",
        "companycode": "801",
        "address": "BARKING ,IG118EQ",
        "storecode": "2000812",
        "region": "DS"
      }
    },
    {
      "geometry": {
        "type": "Point",
        "coordinates": [
          -2.514672,
          50.9479661
        ]
      },
      "type": "Feature",
      "properties": {
        "category": "DSP",
        "companycode": "356",
        "address": "SHERBORNE ,DT93BA",
        "storecode": "2000683",
        "region": "DS"
      }
    },
    {
      "geometry": {
        "type": "Point",
        "coordinates": [
          -1.7799388,
          51.708263
        ]
      },
      "type": "Feature",
      "properties": {
        "category": "DSP",
        "companycode": "5599",
        "address": "FAIRFORD ,GL74AB",
        "storecode": "2001575",
        "region": "DS"
      }
    },
    {
      "geometry": {
        "type": "Point",
        "coordinates": [
          -0.2424071,
          52.5739158
        ]
      },
      "type": "Feature",
      "properties": {
        "category": "DSP",
        "companycode": "138",
        "address": "PETERBOROUGH ,PE11NW",
        "storecode": "2000618",
        "region": "DS"
      }
    },
    {
      "geometry": {
        "type": "Point",
        "coordinates": [
          -0.2031237,
          51.8018672
        ]
      },
      "type": "Feature",
      "properties": {
        "category": "DSP",
        "companycode": "812",
        "address": "WELWYN GARDEN CITY ,AL86HA",
        "storecode": "2000818",
        "region": "DS"
      }
    },
    {
      "geometry": {
        "type": "Point",
        "coordinates": [
          -0.9310596999999999,
          51.42538279999999
        ]
      },
      "type": "Feature",
      "properties": {
        "category": "DSP",
        "companycode": "5763",
        "address": "READING ,RG65GA",
        "storecode": "2001643",
        "region": "DS"
      }
    },
    {
      "geometry": {
        "type": "Point",
        "coordinates": [
          -3.2073414,
          54.1122139
        ]
      },
      "type": "Feature",
      "properties": {
        "category": "DSP",
        "companycode": "2381",
        "address": "Barrow IF Risedale Rd ,LA139RD",
        "storecode": "2000252",
        "region": "DS"
      }
    },
    {
      "geometry": {
        "type": "Point",
        "coordinates": [
          -0.4487313000000001,
          51.39598849999999
        ]
      },
      "type": "Feature",
      "properties": {
        "category": "DSP",
        "companycode": "5020",
        "address": "Shepperton High St ,TW179AJ",
        "storecode": "2000253",
        "region": "DS"
      }
    },
    {
      "geometry": {
        "type": "Point",
        "coordinates": [
          -0.461438,
          51.4334242
        ]
      },
      "type": "Feature",
      "properties": {
        "category": "DSP",
        "companycode": "5023",
        "address": "Ashford Church Rd ,TW152TS",
        "storecode": "2000254",
        "region": "DS"
      }
    },
    {
      "geometry": {
        "type": "Point",
        "coordinates": [
          -0.589477,
          51.3194351
        ]
      },
      "type": "Feature",
      "properties": {
        "category": "DSP",
        "companycode": "5073",
        "address": "Woking Goldsworth Pk Ctr ,GU213LG",
        "storecode": "2000255",
        "region": "DS"
      }
    },
    {
      "geometry": {
        "type": "Point",
        "coordinates": [
          -2.2172209,
          52.0641566
        ]
      },
      "type": "Feature",
      "properties": {
        "category": "DSP",
        "companycode": "5087",
        "address": "Upton Upon Severn High St ,WR80HB",
        "storecode": "2000256",
        "region": "DS"
      }
    },
    {
      "geometry": {
        "type": "Point",
        "coordinates": [
          -4.046284200000001,
          55.7621654
        ]
      },
      "type": "Feature",
      "properties": {
        "category": "DSP",
        "companycode": "5259",
        "address": "Hamilton Mill Rd ,ML38AA",
        "storecode": "2000259",
        "region": "DS"
      }
    },
    {
      "geometry": {
        "type": "Point",
        "coordinates": [
          -3.1363035,
          51.8588154
        ]
      },
      "type": "Feature",
      "properties": {
        "category": "DSP",
        "companycode": "5279",
        "address": "Crickhowell Beaufort Street,NP81AD",
        "storecode": "2000260",
        "region": "DS"
      }
    },
    {
      "geometry": {
        "type": "Point",
        "coordinates": [
          -1.7352649,
          50.7818789
        ]
      },
      "type": "Feature",
      "properties": {
        "category": "DSP",
        "companycode": "5185",
        "address": "Christchurch Bransgore ,BH238AB",
        "storecode": "2000262",
        "region": "DS"
      }
    },
    {
      "geometry": {
        "type": "Point",
        "coordinates": [
          -1.0938289,
          52.6422101
        ]
      },
      "type": "Feature",
      "properties": {
        "category": "DSP",
        "companycode": "5195",
        "address": "Leicester 149 Uppingham Rd ,LE54BP",
        "storecode": "2000263",
        "region": "DS"
      }
    },
    {
      "geometry": {
        "type": "Point",
        "coordinates": [
          -3.9838532,
          55.786282
        ]
      },
      "type": "Feature",
      "properties": {
        "category": "DSP",
        "companycode": "5250",
        "address": "Motherwell Windmillhill St ,ML11TA",
        "storecode": "2000265",
        "region": "DS"
      }
    },
    {
      "geometry": {
        "type": "Point",
        "coordinates": [
          0.1130594,
          51.758135
        ]
      },
      "type": "Feature",
      "properties": {
        "category": "DSP",
        "companycode": "5351",
        "address": "Harlow Bush Fair North Hs ,CM186PA",
        "storecode": "2000266",
        "region": "DS"
      }
    },
    {
      "geometry": {
        "type": "Point",
        "coordinates": [
          0.3645661,
          51.4624539
        ]
      },
      "type": "Feature",
      "properties": {
        "category": "DSP",
        "companycode": "5353",
        "address": "Tilbury St Chads Rd ,RM188LB",
        "storecode": "2000267",
        "region": "DS"
      }
    },
    {
      "geometry": {
        "type": "Point",
        "coordinates": [
          -2.5309204,
          52.7185056
        ]
      },
      "type": "Feature",
      "properties": {
        "category": "DSP",
        "companycode": "5361",
        "address": "Telford Shawbirch ,TF50LW",
        "storecode": "2000268",
        "region": "DS"
      }
    },
    {
      "geometry": {
        "type": "Point",
        "coordinates": [
          -1.7521562,
          52.481353
        ]
      },
      "type": "Feature",
      "properties": {
        "category": "DSP",
        "companycode": "5376",
        "address": "Birmingham Chelmsley Wd Hc ,B375BU",
        "storecode": "2000269",
        "region": "DS"
      }
    },
    {
      "geometry": {
        "type": "Point",
        "coordinates": [
          -4.5012218,
          55.6087493
        ]
      },
      "type": "Feature",
      "properties": {
        "category": "DSP",
        "companycode": "5386",
        "address": "Kilmarnock Grange St ,KA12DD",
        "storecode": "2000270",
        "region": "DS"
      }
    },
    {
      "geometry": {
        "type": "Point",
        "coordinates": [
          -1.2983396,
          50.7517682
        ]
      },
      "type": "Feature",
      "properties": {
        "category": "DSP",
        "companycode": "5413",
        "address": "Cowes Hc ,PO317ER",
        "storecode": "2000271",
        "region": "DS"
      }
    },
    {
      "geometry": {
        "type": "Point",
        "coordinates": [
          -3.061853600000001,
          53.5559828
        ]
      },
      "type": "Feature",
      "properties": {
        "category": "DSP",
        "companycode": "5417",
        "address": "Formby Elbow Ln ,L374AB",
        "storecode": "2000273",
        "region": "DS"
      }
    },
    {
      "geometry": {
        "type": "Point",
        "coordinates": [
          1.3866327,
          52.8216732
        ]
      },
      "type": "Feature",
      "properties": {
        "category": "DSP",
        "companycode": "5425",
        "address": "North Walsham Market Pl ,NR289BP",
        "storecode": "2000274",
        "region": "DS"
      }
    },
    {
      "geometry": {
        "type": "Point",
        "coordinates": [
          0.5829074,
          51.7172695
        ]
      },
      "type": "Feature",
      "properties": {
        "category": "DSP",
        "companycode": "5440",
        "address": "Danbury Eves Corner ,CM34QF",
        "storecode": "2000276",
        "region": "DS"
      }
    },
    {
      "geometry": {
        "type": "Point",
        "coordinates": [
          0.5011711,
          51.71805029999999
        ]
      },
      "type": "Feature",
      "properties": {
        "category": "DSP",
        "companycode": "5441",
        "address": "Great Baddow The Vineyards ,CM27QS",
        "storecode": "2000277",
        "region": "DS"
      }
    },
    {
      "geometry": {
        "type": "Point",
        "coordinates": [
          0.3039217,
          50.7812201
        ]
      },
      "type": "Feature",
      "properties": {
        "category": "DSP",
        "companycode": "5452",
        "address": "Eastbourne Princes Pk Hc ,BN227PF",
        "storecode": "2000278",
        "region": "DS"
      }
    },
    {
      "geometry": {
        "type": "Point",
        "coordinates": [
          0.6240806,
          52.4489947
        ]
      },
      "type": "Feature",
      "properties": {
        "category": "DSP",
        "companycode": "5471",
        "address": "Brandon High St ,IP270AQ",
        "storecode": "2000279",
        "region": "DS"
      }
    },
    {
      "geometry": {
        "type": "Point",
        "coordinates": [
          -1.1711323,
          52.9648629
        ]
      },
      "type": "Feature",
      "properties": {
        "category": "DSP",
        "companycode": "5480",
        "address": "Nottingham Gregory Bvd ,NG75HY",
        "storecode": "2000280",
        "region": "DS"
      }
    },
    {
      "geometry": {
        "type": "Point",
        "coordinates": [
          0.5949817,
          51.7758528
        ]
      },
      "type": "Feature",
      "properties": {
        "category": "DSP",
        "companycode": "5488",
        "address": "Chelmsford Hatfield ,CM32HD",
        "storecode": "2000281",
        "region": "DS"
      }
    },
    {
      "geometry": {
        "type": "Point",
        "coordinates": [
          1.4822199,
          52.5340239
        ]
      },
      "type": "Feature",
      "properties": {
        "category": "DSP",
        "companycode": "5506",
        "address": "Loddon High St ,NR146AH",
        "storecode": "2000282",
        "region": "DS"
      }
    },
    {
      "geometry": {
        "type": "Point",
        "coordinates": [
          -0.2734164,
          51.9490146
        ]
      },
      "type": "Feature",
      "properties": {
        "category": "DSP",
        "companycode": "5520",
        "address": "Hitchin Queen St ,SG49TH",
        "storecode": "2000283",
        "region": "DS"
      }
    },
    {
      "geometry": {
        "type": "Point",
        "coordinates": [
          -1.1059409,
          52.73327459999999
        ]
      },
      "type": "Feature",
      "properties": {
        "category": "DSP",
        "companycode": "5523",
        "address": "Sileby Swan St ,LE127NW",
        "storecode": "2000285",
        "region": "DS"
      }
    },
    {
      "geometry": {
        "type": "Point",
        "coordinates": [
          -0.7360998999999999,
          52.67180639999999
        ]
      },
      "type": "Feature",
      "properties": {
        "category": "DSP",
        "companycode": "5530",
        "address": "Oakham Cold Overton Rd ,LE156NT",
        "storecode": "2000286",
        "region": "DS"
      }
    },
    {
      "geometry": {
        "type": "Point",
        "coordinates": [
          -1.4976581,
          52.5161525
        ]
      },
      "type": "Feature",
      "properties": {
        "category": "DSP",
        "companycode": "5535",
        "address": "Stockingford Arbury Rd ,CV107NJ",
        "storecode": "2000287",
        "region": "DS"
      }
    },
    {
      "geometry": {
        "type": "Point",
        "coordinates": [
          -2.3621528,
          51.7005075
        ]
      },
      "type": "Feature",
      "properties": {
        "category": "DSP",
        "companycode": "5538",
        "address": "Dursley Cam ,GL115NU",
        "storecode": "2000288",
        "region": "DS"
      }
    },
    {
      "geometry": {
        "type": "Point",
        "coordinates": [
          -0.1715635,
          51.8019417
        ]
      },
      "type": "Feature",
      "properties": {
        "category": "DSP",
        "companycode": "5566",
        "address": "Welwyn Moors Walk ,AL72BQ",
        "storecode": "2000289",
        "region": "DS"
      }
    },
    {
      "geometry": {
        "type": "Point",
        "coordinates": [
          -3.7740412,
          53.3167132
        ]
      },
      "type": "Feature",
      "properties": {
        "category": "DSP",
        "companycode": "5595",
        "address": "Llandudno Penryhn Bay,LL303HA",
        "storecode": "2000290",
        "region": "DS"
      }
    },
    {
      "geometry": {
        "type": "Point",
        "coordinates": [
          -3.9805856,
          55.86872349999999
        ]
      },
      "type": "Feature",
      "properties": {
        "category": "DSP",
        "companycode": "5611",
        "address": "Airdrie Southbridge ,ML66JQ",
        "storecode": "2000291",
        "region": "DS"
      }
    },
    {
      "geometry": {
        "type": "Point",
        "coordinates": [
          -1.7816127,
          50.7375492
        ]
      },
      "type": "Feature",
      "properties": {
        "category": "DSP",
        "companycode": "5614",
        "address": "Christchurch Twynham Ave ,BH231QU",
        "storecode": "2000292",
        "region": "DS"
      }
    },
    {
      "geometry": {
        "type": "Point",
        "coordinates": [
          -0.3456484,
          51.3624642
        ]
      },
      "type": "Feature",
      "properties": {
        "category": "DSP",
        "companycode": "5631",
        "address": "Claygate Hare Ln ,KT100QX",
        "storecode": "2000294",
        "region": "DS"
      }
    },
    {
      "geometry": {
        "type": "Point",
        "coordinates": [
          0.46441,
          51.7479294
        ]
      },
      "type": "Feature",
      "properties": {
        "category": "DSP",
        "companycode": "5645",
        "address": "Chelmsford Sunrise ,CM14JW",
        "storecode": "2000296",
        "region": "DS"
      }
    },
    {
      "geometry": {
        "type": "Point",
        "coordinates": [
          0.5053246,
          51.56638650000001
        ]
      },
      "type": "Feature",
      "properties": {
        "category": "DSP",
        "companycode": "5668",
        "address": "Basildon Pitsea ,SS133DU",
        "storecode": "2000297",
        "region": "DS"
      }
    },
    {
      "geometry": {
        "type": "Point",
        "coordinates": [
          -2.6451297,
          53.5012467
        ]
      },
      "type": "Feature",
      "properties": {
        "category": "DSP",
        "companycode": "5689",
        "address": "Ashton In Makerfield Bryn ,WN40AR",
        "storecode": "2000300",
        "region": "DS"
      }
    },
    {
      "geometry": {
        "type": "Point",
        "coordinates": [
          1.2862785,
          52.6444504
        ]
      },
      "type": "Feature",
      "properties": {
        "category": "DSP",
        "companycode": "5695",
        "address": "Norwich Aylsham Rd ,NR32HW",
        "storecode": "2000301",
        "region": "DS"
      }
    },
    {
      "geometry": {
        "type": "Point",
        "coordinates": [
          -4.176164600000001,
          55.76132149999999
        ]
      },
      "type": "Feature",
      "properties": {
        "category": "DSP",
        "companycode": "5712",
        "address": "East Kilbride Brouster ,G741LD",
        "storecode": "2000303",
        "region": "DS"
      }
    },
    {
      "geometry": {
        "type": "Point",
        "coordinates": [
          -4.018913599999999,
          55.95621149999999
        ]
      },
      "type": "Feature",
      "properties": {
        "category": "DSP",
        "companycode": "5715",
        "address": "Glasg Cmbrnd Auch Dist Ctr ,G680EZ",
        "storecode": "2000304",
        "region": "DS"
      }
    },
    {
      "geometry": {
        "type": "Point",
        "coordinates": [
          -0.3704219,
          51.4194012
        ]
      },
      "type": "Feature",
      "properties": {
        "category": "DSP",
        "companycode": "5741",
        "address": "Hampton Priory Rd ,TW122NT",
        "storecode": "2000305",
        "region": "DS"
      }
    },
    {
      "geometry": {
        "type": "Point",
        "coordinates": [
          -2.9423717,
          53.5160202
        ]
      },
      "type": "Feature",
      "properties": {
        "category": "DSP",
        "companycode": "5773",
        "address": "Liverpool Maghull ,L312PQ",
        "storecode": "2000307",
        "region": "DS"
      }
    },
    {
      "geometry": {
        "type": "Point",
        "coordinates": [
          -0.2119437,
          53.1532035
        ]
      },
      "type": "Feature",
      "properties": {
        "category": "DSP",
        "companycode": "5798",
        "address": "Woodhall Spa ,LN106ST",
        "storecode": "2000308",
        "region": "DS"
      }
    },
    {
      "geometry": {
        "type": "Point",
        "coordinates": [
          -2.6919441,
          53.69607430000001
        ]
      },
      "type": "Feature",
      "properties": {
        "category": "DSP",
        "companycode": "5807",
        "address": "Leyland Hough Ln ,PR252SA",
        "storecode": "2000309",
        "region": "DS"
      }
    },
    {
      "geometry": {
        "type": "Point",
        "coordinates": [
          -0.1885281,
          51.4054685
        ]
      },
      "type": "Feature",
      "properties": {
        "category": "DSP",
        "companycode": "5818",
        "address": "London Morden Hall Hc ,SW193DA",
        "storecode": "2000311",
        "region": "DS"
      }
    },
    {
      "geometry": {
        "type": "Point",
        "coordinates": [
          -4.9268933,
          55.95122
        ]
      },
      "type": "Feature",
      "properties": {
        "category": "DSP",
        "companycode": "5877",
        "address": "Dunoon 182 Argyll St ,PA237HA",
        "storecode": "2000313",
        "region": "DS"
      }
    },
    {
      "geometry": {
        "type": "Point",
        "coordinates": [
          1.3402857,
          51.2756658
        ]
      },
      "type": "Feature",
      "properties": {
        "category": "DSP",
        "companycode": "5882",
        "address": "Sandwich Market St ,CT139DA",
        "storecode": "2000314",
        "region": "DS"
      }
    },
    {
      "geometry": {
        "type": "Point",
        "coordinates": [
          1.2993972,
          52.4027166
        ]
      },
      "type": "Feature",
      "properties": {
        "category": "DSP",
        "companycode": "5951",
        "address": "Harleston Norfolk ,IP209AH",
        "storecode": "2000315",
        "region": "DS"
      }
    },
    {
      "geometry": {
        "type": "Point",
        "coordinates": [
          -0.2240857,
          51.3691333
        ]
      },
      "type": "Feature",
      "properties": {
        "category": "DSP",
        "companycode": "5961",
        "address": "North Cheam Malden Rd ,SM38EP",
        "storecode": "2000317",
        "region": "DS"
      }
    },
    {
      "geometry": {
        "type": "Point",
        "coordinates": [
          0.3511409,
          50.8123801
        ]
      },
      "type": "Feature",
      "properties": {
        "category": "DSP",
        "companycode": "5962",
        "address": "Pevensey Bay Eastbourne Rd ,BN246ET",
        "storecode": "2000318",
        "region": "DS"
      }
    },
    {
      "geometry": {
        "type": "Point",
        "coordinates": [
          -0.0151239,
          51.3426815
        ]
      },
      "type": "Feature",
      "properties": {
        "category": "DSP",
        "companycode": "5970",
        "address": "New Addington Central Pde ,CR00JB",
        "storecode": "2000319",
        "region": "DS"
      }
    },
    {
      "geometry": {
        "type": "Point",
        "coordinates": [
          -2.8000265,
          53.4160214
        ]
      },
      "type": "Feature",
      "properties": {
        "category": "DSP",
        "companycode": "5974",
        "address": "Liverpool Whiston ,L353SX",
        "storecode": "2000320",
        "region": "DS"
      }
    },
    {
      "geometry": {
        "type": "Point",
        "coordinates": [
          0.1704044,
          52.1236478
        ]
      },
      "type": "Feature",
      "properties": {
        "category": "DSP",
        "companycode": "5981",
        "address": "Sawston High St ,CB223BG",
        "storecode": "2000321",
        "region": "DS"
      }
    },
    {
      "geometry": {
        "type": "Point",
        "coordinates": [
          0.1948288,
          51.9050299
        ]
      },
      "type": "Feature",
      "properties": {
        "category": "DSP",
        "companycode": "5986",
        "address": "Stansted The Greens Bd ,CM248BZ",
        "storecode": "2000322",
        "region": "DS"
      }
    },
    {
      "geometry": {
        "type": "Point",
        "coordinates": [
          -0.3872067,
          51.44083329999999
        ]
      },
      "type": "Feature",
      "properties": {
        "category": "DSP",
        "companycode": "6011",
        "address": "Hanworth Market Pde ,TW136AJ",
        "storecode": "2000323",
        "region": "DS"
      }
    },
    {
      "geometry": {
        "type": "Point",
        "coordinates": [
          -2.1322644,
          57.1536646
        ]
      },
      "type": "Feature",
      "properties": {
        "category": "DSP",
        "companycode": "2162",
        "address": "Aberdeen Foresterhill Hc ,AB252UZ",
        "storecode": "2000324",
        "region": "DS"
      }
    },
    {
      "geometry": {
        "type": "Point",
        "coordinates": [
          -3.0473197,
          52.3445064
        ]
      },
      "type": "Feature",
      "properties": {
        "category": "DSP",
        "companycode": "6111",
        "address": "Knighton Wylcwm Place,LD71AE",
        "storecode": "2000325",
        "region": "DS"
      }
    },
    {
      "geometry": {
        "type": "Point",
        "coordinates": [
          -1.6244367,
          52.064137
        ]
      },
      "type": "Feature",
      "properties": {
        "category": "DSP",
        "companycode": "6113",
        "address": "Shipston On Stour Sheep St ,CV364AF",
        "storecode": "2000326",
        "region": "DS"
      }
    },
    {
      "geometry": {
        "type": "Point",
        "coordinates": [
          -3.1431074,
          53.1690433
        ]
      },
      "type": "Feature",
      "properties": {
        "category": "DSP",
        "companycode": "6132",
        "address": "Mold 32 High Street,CH71BH",
        "storecode": "2000327",
        "region": "DS"
      }
    },
    {
      "geometry": {
        "type": "Point",
        "coordinates": [
          -1.7941283,
          52.4499711
        ]
      },
      "type": "Feature",
      "properties": {
        "category": "DSP",
        "companycode": "6200",
        "address": "Solihull Olton ,B927QP",
        "storecode": "2000328",
        "region": "DS"
      }
    },
    {
      "geometry": {
        "type": "Point",
        "coordinates": [
          -2.4054394,
          53.7862851
        ]
      },
      "type": "Feature",
      "properties": {
        "category": "DSP",
        "companycode": "6221",
        "address": "Great Harwood Queens St ,BB67QQ",
        "storecode": "2000329",
        "region": "DS"
      }
    },
    {
      "geometry": {
        "type": "Point",
        "coordinates": [
          -0.2841366,
          52.4409615
        ]
      },
      "type": "Feature",
      "properties": {
        "category": "DSP",
        "companycode": "6258",
        "address": "Sawtry High St ,PE285SU",
        "storecode": "2000330",
        "region": "DS"
      }
    },
    {
      "geometry": {
        "type": "Point",
        "coordinates": [
          -0.2841366,
          52.4409615
        ]
      },
      "type": "Feature",
      "properties": {
        "category": "DSP",
        "companycode": "6260",
        "address": "MALMESBURY ,SN160EQ",
        "storecode": "2001829",
        "region": "DS"
      }
    },
    {
      "geometry": {
        "type": "Point",
        "coordinates": [
          -1.5466252,
          50.7605733
        ]
      },
      "type": "Feature",
      "properties": {
        "category": "DSP",
        "companycode": "5186",
        "address": "LYMINGTON ,SO419GJ",
        "storecode": "2001367",
        "region": "DS"
      }
    },
    {
      "geometry": {
        "type": "Point",
        "coordinates": [
          -1.1126488,
          51.25705110000001
        ]
      },
      "type": "Feature",
      "properties": {
        "category": "DSP",
        "companycode": "1027",
        "address": "BASINGSTOKE ,RG226ER",
        "storecode": "2000919",
        "region": "DS"
      }
    },
    {
      "geometry": {
        "type": "Point",
        "coordinates": [
          -1.1126488,
          51.25705110000001
        ]
      },
      "type": "Feature",
      "properties": {
        "category": "DSP",
        "companycode": "5189",
        "address": "ROCHESTER ,ME12TH",
        "storecode": "2001369",
        "region": "DS"
      }
    },
    {
      "geometry": {
        "type": "Point",
        "coordinates": [
          -1.4925683,
          51.2143644
        ]
      },
      "type": "Feature",
      "properties": {
        "category": "DSP",
        "companycode": "5994",
        "address": "ANDOVER ,SP103JY",
        "storecode": "2001766",
        "region": "DS"
      }
    },
    {
      "geometry": {
        "type": "Point",
        "coordinates": [
          -1.4729929,
          52.92040739999999
        ]
      },
      "type": "Feature",
      "properties": {
        "category": "DSP",
        "companycode": "23",
        "address": "Derby Intu Shopping Centre ,DE12AH",
        "storecode": "2000353",
        "region": "DS"
      }
    },
    {
      "geometry": {
        "type": "Point",
        "coordinates": [
          -0.1403218,
          51.5477499
        ]
      },
      "type": "Feature",
      "properties": {
        "category": "DSP",
        "companycode": "1834",
        "address": "London Kentish Town Road ,NW52AE",
        "storecode": "2000356",
        "region": "DS"
      }
    },
    {
      "geometry": {
        "type": "Point",
        "coordinates": [
          -1.9464347,
          52.4602063
        ]
      },
      "type": "Feature",
      "properties": {
        "category": "DSP",
        "companycode": "215",
        "address": "Birmingham Harborne ,B179NR",
        "storecode": "2000357",
        "region": "DS"
      }
    },
    {
      "geometry": {
        "type": "Point",
        "coordinates": [
          -0.4920167999999999,
          51.7566132
        ]
      },
      "type": "Feature",
      "properties": {
        "category": "DSP",
        "companycode": "5889",
        "address": "Hemel Hemp Stoneycroft ,HP12QF",
        "storecode": "2000358",
        "region": "DS"
      }
    },
    {
      "geometry": {
        "type": "Point",
        "coordinates": [
          -2.6404228,
          53.4524461
        ]
      },
      "type": "Feature",
      "properties": {
        "category": "DSP",
        "companycode": "1194",
        "address": "NEWTON-LE-WILLOWS ,WA129AN",
        "storecode": "2000984",
        "region": "DS"
      }
    },
    {
      "geometry": {
        "type": "Point",
        "coordinates": [
          -1.3824881,
          53.9296067
        ]
      },
      "type": "Feature",
      "properties": {
        "category": "DSP",
        "companycode": "564",
        "address": "WETHERBY ,LS226FL",
        "storecode": "2000751",
        "region": "DS"
      }
    },
    {
      "geometry": {
        "type": "Point",
        "coordinates": [
          -2.6352278,
          53.486656
        ]
      },
      "type": "Feature",
      "properties": {
        "category": "DSP",
        "companycode": "1215",
        "address": "WIGAN ,WN49AN",
        "storecode": "2000993",
        "region": "DS"
      }
    },
    {
      "geometry": {
        "type": "Point",
        "coordinates": [
          -0.1867183,
          52.6094
        ]
      },
      "type": "Feature",
      "properties": {
        "category": "DSP",
        "companycode": "5202",
        "address": "PETERBOROUGH ,PE67UP",
        "storecode": "2001376",
        "region": "DS"
      }
    },
    {
      "geometry": {
        "type": "Point",
        "coordinates": [
          -0.0897424,
          53.5639883
        ]
      },
      "type": "Feature",
      "properties": {
        "category": "DSP",
        "companycode": "5903",
        "address": "GRIMSBY ,DN311QZ",
        "storecode": "2001711",
        "region": "DS"
      }
    },
    {
      "geometry": {
        "type": "Point",
        "coordinates": [
          -0.3964784,
          51.6715933
        ]
      },
      "type": "Feature",
      "properties": {
        "category": "DSP",
        "companycode": "1049",
        "address": "WATFORD ,WD245BQ",
        "storecode": "2000928",
        "region": "DS"
      }
    },
    {
      "geometry": {
        "type": "Point",
        "coordinates": [
          0.0524541,
          51.5372378
        ]
      },
      "type": "Feature",
      "properties": {
        "category": "DSP",
        "companycode": "149",
        "address": "LONDON ,E62HT",
        "storecode": "2000620",
        "region": "DS"
      }
    },
    {
      "geometry": {
        "type": "Point",
        "coordinates": [
          -2.1131606,
          53.5420795
        ]
      },
      "type": "Feature",
      "properties": {
        "category": "DSP",
        "companycode": "1143",
        "address": "Oldham Town Sq Sc ,OL11XD",
        "storecode": "2000336",
        "region": "DS"
      }
    },
    {
      "geometry": {
        "type": "Point",
        "coordinates": [
          -2.2424975,
          53.4830654
        ]
      },
      "type": "Feature",
      "properties": {
        "category": "DSP",
        "companycode": "1200",
        "address": "Manchester Market Street ,M11PL",
        "storecode": "2000338",
        "region": "DS"
      }
    },
    {
      "geometry": {
        "type": "Point",
        "coordinates": [
          0.9011615,
          51.8886832
        ]
      },
      "type": "Feature",
      "properties": {
        "category": "DSP",
        "companycode": "199",
        "address": "Colchester Lion Walk ,CO11LX",
        "storecode": "2000350",
        "region": "DS"
      }
    },
    {
      "geometry": {
        "type": "Point",
        "coordinates": [
          -0.2002532,
          51.3232872
        ]
      },
      "type": "Feature",
      "properties": {
        "category": "DSP",
        "companycode": "1414",
        "address": "BANSTEAD ,SM72NL",
        "storecode": "2001061",
        "region": "DS"
      }
    },
    {
      "geometry": {
        "type": "Point",
        "coordinates": [
          0.6086444,
          51.3647248
        ]
      },
      "type": "Feature",
      "properties": {
        "category": "DSP",
        "companycode": "1537",
        "address": "GILLINGHAM ,ME87HW",
        "storecode": "2001123",
        "region": "DS"
      }
    },
    {
      "geometry": {
        "type": "Point",
        "coordinates": [
          0.2726943,
          51.4382393
        ]
      },
      "type": "Feature",
      "properties": {
        "category": "DSP",
        "companycode": "1060",
        "address": "GREENHITHE ,DA99SJ",
        "storecode": "2000931",
        "region": "DS"
      }
    },
    {
      "geometry": {
        "type": "Point",
        "coordinates": [
          -0.7276201999999999,
          51.3036393
        ]
      },
      "type": "Feature",
      "properties": {
        "category": "DSP",
        "companycode": "6077",
        "address": "CAMBERLEY ,GU166LD",
        "storecode": "2001779",
        "region": "DS"
      }
    },
    {
      "geometry": {
        "type": "Point",
        "coordinates": [
          0.6259298999999999,
          51.8054715
        ]
      },
      "type": "Feature",
      "properties": {
        "category": "DSP",
        "companycode": "5486",
        "address": "WITHAM ,CM81NE",
        "storecode": "2001514",
        "region": "DS"
      }
    },
    {
      "geometry": {
        "type": "Point",
        "coordinates": [
          -0.4364656,
          54.0037904
        ]
      },
      "type": "Feature",
      "properties": {
        "category": "DSP",
        "companycode": "595",
        "address": "DRIFFIELD ,YO256PS",
        "storecode": "2000759",
        "region": "DS"
      }
    },
    {
      "geometry": {
        "type": "Point",
        "coordinates": [
          0.4734426,
          51.7337443
        ]
      },
      "type": "Feature",
      "properties": {
        "category": "DSP",
        "companycode": "1815",
        "address": "CHELMSFORD ,CM11DD",
        "storecode": "2000551",
        "region": "DS"
      }
    },
    {
      "geometry": {
        "type": "Point",
        "coordinates": [
          -5.2642187,
          50.2467277
        ]
      },
      "type": "Feature",
      "properties": {
        "category": "DSP",
        "companycode": "5336",
        "address": "REDRUTH ,TR164SS",
        "storecode": "2001441",
        "region": "DS"
      }
    },
    {
      "geometry": {
        "type": "Point",
        "coordinates": [
          -1.2776012,
          52.8364012
        ]
      },
      "type": "Feature",
      "properties": {
        "category": "DSP",
        "companycode": "5344",
        "address": "DERBY ,DE742ED",
        "storecode": "2001447",
        "region": "DS"
      }
    },
    {
      "geometry": {
        "type": "Point",
        "coordinates": [
          -1.5674148,
          54.94844790000001
        ]
      },
      "type": "Feature",
      "properties": {
        "category": "DSP",
        "companycode": "1556",
        "address": "GATESHEAD ,NE109QG",
        "storecode": "2001131",
        "region": "DS"
      }
    },
    {
      "geometry": {
        "type": "Point",
        "coordinates": [
          -1.4486184,
          53.7531153
        ]
      },
      "type": "Feature",
      "properties": {
        "category": "DSP",
        "companycode": "1565",
        "address": "LEEDS ,LS268SZ",
        "storecode": "2001132",
        "region": "DS"
      }
    },